{
"type": "FeatureCollection",
"crs": { "type": "name", "properties": { "name": "urn:ogc:def:crs:OGC:1.3:CRS84" } },
"features": [
{ "type": "Feature", "properties": { "NAME": "Hämeenlinna", "POP_MIN": 47261, "POP_MAX": 47261, "lat": 60.996996, "lon": 24.472, "time": "2020-02-01", "temperature (K)": 268.07000732421875 }, "geometry": { "type": "Point", "coordinates": [ 24.4719995, 60.9969961 ] } },
{ "type": "Feature", "properties": { "NAME": "Kouvola", "POP_MIN": 31133, "POP_MAX": 31133, "lat": 60.876, "lon": 26.709004, "time": "2020-02-01", "temperature (K)": 265.47998046875 }, "geometry": { "type": "Point", "coordinates": [ 26.7090035, 60.8760001 ] } },
{ "type": "Feature", "properties": { "NAME": "Mikkeli", "POP_MIN": 46550, "POP_MAX": 46550, "lat": 61.689996, "lon": 27.285004, "time": "2020-02-01", "temperature (K)": 269.29998779296875 }, "geometry": { "type": "Point", "coordinates": [ 27.2850035, 61.6899962 ] } },
{ "type": "Feature", "properties": { "NAME": "Savonlinna", "POP_MIN": 13114, "POP_MAX": 27353, "lat": 61.866623, "lon": 28.883343, "time": "2020-02-01", "temperature (K)": 268.29998779296875 }, "geometry": { "type": "Point", "coordinates": [ 28.8833427, 61.8666229 ] } },
{ "type": "Feature", "properties": { "NAME": "Pori", "POP_MIN": 66280, "POP_MAX": 76772, "lat": 61.478895, "lon": 21.774939, "time": "2020-02-01", "temperature (K)": 266.38998413085938 }, "geometry": { "type": "Point", "coordinates": [ 21.7749393, 61.4788947 ] } },
{ "type": "Feature", "properties": { "NAME": "Sodankylä", "POP_MIN": 4091, "POP_MAX": 8942, "lat": 67.417059, "lon": 26.60002, "time": "2020-02-01", "temperature (K)": 253.90998840332031 }, "geometry": { "type": "Point", "coordinates": [ 26.6000195, 67.4170593 ] } },
{ "type": "Feature", "properties": { "NAME": "Jyväskylä", "POP_MIN": 85026, "POP_MAX": 98136, "lat": 62.260346, "lon": 25.749994, "time": "2020-02-01", "temperature (K)": 270.02999877929688 }, "geometry": { "type": "Point", "coordinates": [ 25.7499939, 62.2603457 ] } },
{ "type": "Feature", "properties": { "NAME": "Kuopio", "POP_MIN": 89104, "POP_MAX": 91900, "lat": 62.894286, "lon": 27.69494, "time": "2020-02-01", "temperature (K)": 267.91000366210938 }, "geometry": { "type": "Point", "coordinates": [ 27.6949397, 62.8942863 ] } },
{ "type": "Feature", "properties": { "NAME": "Lappeenranta", "POP_MIN": 49757, "POP_MAX": 59276, "lat": 61.067059, "lon": 28.183334, "time": "2020-02-01", "temperature (K)": 266.8800048828125 }, "geometry": { "type": "Point", "coordinates": [ 28.1833337, 61.0670593 ] } },
{ "type": "Feature", "properties": { "NAME": "Porvoo", "POP_MIN": 12242, "POP_MAX": 12242, "lat": 60.400356, "lon": 25.66602, "time": "2020-02-01", "temperature (K)": 260.94000244140625 }, "geometry": { "type": "Point", "coordinates": [ 25.6660197, 60.4003559 ] } },
{ "type": "Feature", "properties": { "NAME": "Kemijärvi", "POP_MIN": 8883, "POP_MAX": 8883, "lat": 66.666666, "lon": 27.416662, "time": "2020-02-01", "temperature (K)": 255.94000244140625 }, "geometry": { "type": "Point", "coordinates": [ 27.4166621, 66.6666659 ] } },
{ "type": "Feature", "properties": { "NAME": "Kokkola", "POP_MIN": 46714, "POP_MAX": 46714, "lat": 63.833299, "lon": 23.116666, "time": "2020-02-01", "temperature (K)": 263.52999877929688 }, "geometry": { "type": "Point", "coordinates": [ 23.1166662, 63.8332988 ] } },
{ "type": "Feature", "properties": { "NAME": "Lahti", "POP_MIN": 96190, "POP_MAX": 98826, "lat": 60.99386, "lon": 25.664934, "time": "2020-02-01", "temperature (K)": 266.80999755859375 }, "geometry": { "type": "Point", "coordinates": [ 25.6649344, 60.9938597 ] } },
{ "type": "Feature", "properties": { "NAME": "Joensuu", "POP_MIN": 53388, "POP_MAX": 53388, "lat": 62.599989, "lon": 29.766648, "time": "2020-02-01", "temperature (K)": 267.3800048828125 }, "geometry": { "type": "Point", "coordinates": [ 29.7666479, 62.599989 ] } },
{ "type": "Feature", "properties": { "NAME": "Turku", "POP_MIN": 174940, "POP_MAX": 175945, "lat": 60.453867, "lon": 22.254962, "time": "2020-02-01", "temperature (K)": 260.5 }, "geometry": { "type": "Point", "coordinates": [ 22.2549617, 60.4538668 ] } },
{ "type": "Feature", "properties": { "NAME": "Kemi", "POP_MIN": 11479, "POP_MAX": 22641, "lat": 65.733312, "lon": 24.581693, "time": "2020-02-01", "temperature (K)": 263.97000122070312 }, "geometry": { "type": "Point", "coordinates": [ 24.5816931, 65.733312 ] } },
{ "type": "Feature", "properties": { "NAME": "Oulu", "POP_MIN": 128618, "POP_MAX": 136752, "lat": 64.999998, "lon": 25.470011, "time": "2020-02-01", "temperature (K)": 266.95999145507812 }, "geometry": { "type": "Point", "coordinates": [ 25.4700109, 64.9999976 ] } },
{ "type": "Feature", "properties": { "NAME": "Rovaniemi", "POP_MIN": 25389, "POP_MAX": 34781, "lat": 66.500035, "lon": 25.715939, "time": "2020-02-01", "temperature (K)": 256.1099853515625 }, "geometry": { "type": "Point", "coordinates": [ 25.7159391, 66.5000352 ] } },
{ "type": "Feature", "properties": { "NAME": "Vaasa", "POP_MIN": 40846, "POP_MAX": 57014, "lat": 63.099984, "lon": 21.600015, "time": "2020-02-01", "temperature (K)": 264.92999267578125 }, "geometry": { "type": "Point", "coordinates": [ 21.6000146, 63.0999844 ] } },
{ "type": "Feature", "properties": { "NAME": "Tampere", "POP_MIN": 202687, "POP_MAX": 259279, "lat": 61.500005, "lon": 23.750013, "time": "2020-02-01", "temperature (K)": 267.239990234375 }, "geometry": { "type": "Point", "coordinates": [ 23.7500126, 61.5000045 ] } },
{ "type": "Feature", "properties": { "NAME": "Helsinki", "POP_MIN": 558457, "POP_MAX": 1115000, "lat": 60.177509, "lon": 24.932181, "time": "2020-02-01", "temperature (K)": 249.87998962402344 }, "geometry": { "type": "Point", "coordinates": [ 24.932456915043964, 60.163803849485681 ] } }
]
}
